{
  "type": "FeatureCollection",
  "generator": "overpass-turbo",
  "copyright": "The data included in this document is from www.openstreetmap.org. The data is made available under ODbL.",
  "timestamp": "2025-12-31T09:40:51Z",
  "features": [
    {
      "type": "Feature",
      "properties": {
        "@id": "way/29252418",
        "amenity": "school",
        "description": "Begumpet Campus",
        "name": "Hyderabad Public School",
        "name:ml": "ഹൈദരാബാദ് പബ്ലിക് സ്കൂൾ",
        "name:te": "హైదరాబాద్ పబ్లిక్ స్కూల్",
        "wikidata": "Q12060641",
        "wikimedia_commons": "Category:Hyderabad Public School",
        "wikipedia": "en:The Hyderabad Public School, Begumpet",
        "@geometry": "center"
      },
      "geometry": {
        "type": "Point",
        "coordinates": [
          78.4569492,
          17.4459393
        ]
      },
      "id": "way/29252418"
    },
    {
      "type": "Feature",
      "properties": {
        "@id": "way/71931212",
        "amenity": "school",
        "name": "St Andrews School",
        "@geometry": "center"
      },
      "geometry": {
        "type": "Point",
        "coordinates": [
          78.4832946,
          17.486296
        ]
      },
      "id": "way/71931212"
    },
    {
      "type": "Feature",
      "properties": {
        "@id": "way/75097506",
        "amenity": "school",
        "name": "Keyes High School",
        "@geometry": "center"
      },
      "geometry": {
        "type": "Point",
        "coordinates": [
          78.5039009,
          17.4385394
        ]
      },
      "id": "way/75097506"
    },
    {
      "type": "Feature",
      "properties": {
        "@id": "way/75723547",
        "amenity": "school",
        "name": "Sri Chakri School",
        "@geometry": "center"
      },
      "geometry": {
        "type": "Point",
        "coordinates": [
          78.5858706,
          17.4796329
        ]
      },
      "id": "way/75723547"
    },
    {
      "type": "Feature",
      "properties": {
        "@id": "way/98773172",
        "amenity": "school",
        "name": "NSKK",
        "@geometry": "center"
      },
      "geometry": {
        "type": "Point",
        "coordinates": [
          78.4587497,
          17.462468
        ]
      },
      "id": "way/98773172"
    },
    {
      "type": "Feature",
      "properties": {
        "@id": "way/112653929",
        "amenity": "school",
        "name": "St Martin's School",
        "name:te": "సెయింట్ మార్టిన్స్ స్కూల్",
        "@geometry": "center"
      },
      "geometry": {
        "type": "Point",
        "coordinates": [
          78.4585402,
          17.4648396
        ]
      },
      "id": "way/112653929"
    },
    {
      "type": "Feature",
      "properties": {
        "@id": "way/116017014",
        "amenity": "school",
        "name": "Vidyaranya High School",
        "name:te": "విద్యారణ్య హై స్కూలు",
        "wikidata": "Q7928211",
        "wikipedia": "en:Vidyaranya High School",
        "@geometry": "center"
      },
      "geometry": {
        "type": "Point",
        "coordinates": [
          78.4699868,
          17.4070344
        ]
      },
      "id": "way/116017014"
    },
    {
      "type": "Feature",
      "properties": {
        "@id": "way/122805504",
        "amenity": "school",
        "grades": "0-12",
        "name": "NASR Boys School",
        "@geometry": "center"
      },
      "geometry": {
        "type": "Point",
        "coordinates": [
          78.3706796,
          17.4384654
        ]
      },
      "id": "way/122805504"
    },
    {
      "type": "Feature",
      "properties": {
        "@id": "way/129532501",
        "amenity": "school",
        "name": "ZPHS Kukatpally",
        "@geometry": "center"
      },
      "geometry": {
        "type": "Point",
        "coordinates": [
          78.4133137,
          17.4841092
        ]
      },
      "id": "way/129532501"
    },
    {
      "type": "Feature",
      "properties": {
        "@id": "way/182935269",
        "amenity": "school",
        "name": "St. Paul's high School",
        "@geometry": "center"
      },
      "geometry": {
        "type": "Point",
        "coordinates": [
          78.4815108,
          17.4011973
        ]
      },
      "id": "way/182935269"
    },
    {
      "type": "Feature",
      "properties": {
        "@id": "way/184107080",
        "amenity": "school",
        "name": "Takshasila Public School",
        "@geometry": "center"
      },
      "geometry": {
        "type": "Point",
        "coordinates": [
          78.539641,
          17.4411967
        ]
      },
      "id": "way/184107080"
    },
    {
      "type": "Feature",
      "properties": {
        "@id": "way/186643394",
        "amenity": "school",
        "landuse": "school",
        "name": "Maharishi Vidya Mandir School",
        "name:te": "మహర్షి విద్యా మందిర్",
        "wikidata": "Q6733419",
        "wikimedia_commons": "Category:Maharishi Vidya Mandir",
        "@geometry": "center"
      },
      "geometry": {
        "type": "Point",
        "coordinates": [
          78.3700311,
          17.469626
        ]
      },
      "id": "way/186643394"
    },
    {
      "type": "Feature",
      "properties": {
        "@id": "way/221156976",
        "addr:city": "Hyderabad",
        "amenity": "school",
        "name": "Arbor School",
        "@geometry": "center"
      },
      "geometry": {
        "type": "Point",
        "coordinates": [
          78.3496555,
          17.4680774
        ]
      },
      "id": "way/221156976"
    },
    {
      "type": "Feature",
      "properties": {
        "@id": "way/233492245",
        "amenity": "school",
        "building": "yes",
        "@geometry": "center"
      },
      "geometry": {
        "type": "Point",
        "coordinates": [
          78.4467112,
          17.4425039
        ]
      },
      "id": "way/233492245"
    },
    {
      "type": "Feature",
      "properties": {
        "@id": "way/233492309",
        "addr:housename": "KVCRPF, Barkas",
        "amenity": "school",
        "name": "Kendriya Vidyalaya CRPF",
        "@geometry": "center"
      },
      "geometry": {
        "type": "Point",
        "coordinates": [
          78.4804531,
          17.3184429
        ]
      },
      "id": "way/233492309"
    },
    {
      "type": "Feature",
      "properties": {
        "@id": "way/234428170",
        "amenity": "school",
        "building": "yes",
        "name": "Nagarjuna High School",
        "@geometry": "center"
      },
      "geometry": {
        "type": "Point",
        "coordinates": [
          78.4455357,
          17.4397894
        ]
      },
      "id": "way/234428170"
    },
    {
      "type": "Feature",
      "properties": {
        "@id": "way/238170910",
        "amenity": "school",
        "name": "Arabindoo Bala Kendra",
        "@geometry": "center"
      },
      "geometry": {
        "type": "Point",
        "coordinates": [
          78.4959385,
          17.4168313
        ]
      },
      "id": "way/238170910"
    },
    {
      "type": "Feature",
      "properties": {
        "@id": "way/238175841",
        "amenity": "school",
        "name": "Cambridge Boys School",
        "@geometry": "center"
      },
      "geometry": {
        "type": "Point",
        "coordinates": [
          78.4920628,
          17.4175818
        ]
      },
      "id": "way/238175841"
    },
    {
      "type": "Feature",
      "properties": {
        "@id": "way/238175948",
        "amenity": "school",
        "name": "Sunflower School",
        "@geometry": "center"
      },
      "geometry": {
        "type": "Point",
        "coordinates": [
          78.4932692,
          17.4202652
        ]
      },
      "id": "way/238175948"
    },
    {
      "type": "Feature",
      "properties": {
        "@id": "way/238282938",
        "amenity": "school",
        "landuse": "school",
        "name": "Hindi Maha Vidyalaya",
        "@geometry": "center"
      },
      "geometry": {
        "type": "Point",
        "coordinates": [
          78.5095248,
          17.4013035
        ]
      },
      "id": "way/238282938"
    },
    {
      "type": "Feature",
      "properties": {
        "@id": "way/250946273",
        "amenity": "school",
        "building": "yes",
        "@geometry": "center"
      },
      "geometry": {
        "type": "Point",
        "coordinates": [
          78.4453829,
          17.4428432
        ]
      },
      "id": "way/250946273"
    },
    {
      "type": "Feature",
      "properties": {
        "@id": "way/252088281",
        "amenity": "school",
        "@geometry": "center"
      },
      "geometry": {
        "type": "Point",
        "coordinates": [
          78.5235757,
          17.4252804
        ]
      },
      "id": "way/252088281"
    },
    {
      "type": "Feature",
      "properties": {
        "@id": "way/252604816",
        "amenity": "school",
        "name": "Government Primary School",
        "@geometry": "center"
      },
      "geometry": {
        "type": "Point",
        "coordinates": [
          78.5710821,
          17.3794259
        ]
      },
      "id": "way/252604816"
    },
    {
      "type": "Feature",
      "properties": {
        "@id": "way/253465931",
        "amenity": "school",
        "building": "yes",
        "name": "Government Primary School",
        "@geometry": "center"
      },
      "geometry": {
        "type": "Point",
        "coordinates": [
          78.5711591,
          17.4011004
        ]
      },
      "id": "way/253465931"
    },
    {
      "type": "Feature",
      "properties": {
        "@id": "way/259507812",
        "amenity": "school",
        "building": "yes",
        "@geometry": "center"
      },
      "geometry": {
        "type": "Point",
        "coordinates": [
          78.5644376,
          17.4028694
        ]
      },
      "id": "way/259507812"
    },
    {
      "type": "Feature",
      "properties": {
        "@id": "way/259510771",
        "amenity": "school",
        "building": "yes",
        "name": "government school",
        "@geometry": "center"
      },
      "geometry": {
        "type": "Point",
        "coordinates": [
          78.5703165,
          17.403298
        ]
      },
      "id": "way/259510771"
    },
    {
      "type": "Feature",
      "properties": {
        "@id": "way/265035310",
        "amenity": "school",
        "building": "yes",
        "name": "mother teresa grammar high school block-I",
        "@geometry": "center"
      },
      "geometry": {
        "type": "Point",
        "coordinates": [
          78.5284635,
          17.3637853
        ]
      },
      "id": "way/265035310"
    },
    {
      "type": "Feature",
      "properties": {
        "@id": "way/265035313",
        "amenity": "school",
        "building": "yes",
        "name": "dwarakamai high school",
        "@geometry": "center"
      },
      "geometry": {
        "type": "Point",
        "coordinates": [
          78.5277455,
          17.3639558
        ]
      },
      "id": "way/265035313"
    },
    {
      "type": "Feature",
      "properties": {
        "@id": "way/265035376",
        "amenity": "school",
        "building": "yes",
        "name": "mother teresa grammar high school block-II",
        "@geometry": "center"
      },
      "geometry": {
        "type": "Point",
        "coordinates": [
          78.5265383,
          17.3641992
        ]
      },
      "id": "way/265035376"
    },
    {
      "type": "Feature",
      "properties": {
        "@id": "way/265392005",
        "addr:city": "Hyderabad",
        "addr:postcode": "500008",
        "addr:street": "Old Bombay Highway to Jubliee Hills Road",
        "amenity": "school",
        "name": "International School",
        "@geometry": "center"
      },
      "geometry": {
        "type": "Point",
        "coordinates": [
          78.4021701,
          17.4079922
        ]
      },
      "id": "way/265392005"
    },
    {
      "type": "Feature",
      "properties": {
        "@id": "way/265616425",
        "addr:city": "hyderabad",
        "addr:postcode": "500045",
        "addr:street": "Rajeev Nagar",
        "amenity": "school",
        "building": "yes",
        "name": "Nagarjuna High School",
        "@geometry": "center"
      },
      "geometry": {
        "type": "Point",
        "coordinates": [
          78.4258733,
          17.4488883
        ]
      },
      "id": "way/265616425"
    },
    {
      "type": "Feature",
      "properties": {
        "@id": "way/280689851",
        "amenity": "school",
        "name": "Dwaraka High School",
        "@geometry": "center"
      },
      "geometry": {
        "type": "Point",
        "coordinates": [
          78.4786874,
          17.4091404
        ]
      },
      "id": "way/280689851"
    },
    {
      "type": "Feature",
      "properties": {
        "@id": "way/287681720",
        "amenity": "school",
        "barrier": "wall",
        "brand": "Kendriya Vidyalaya",
        "brand:wikidata": "Q1156653",
        "name": "Kendriya Vidyalaya No. 1",
        "operator:type": "government_non_profit",
        "@geometry": "center"
      },
      "geometry": {
        "type": "Point",
        "coordinates": [
          78.559167,
          17.4003158
        ]
      },
      "id": "way/287681720"
    },
    {
      "type": "Feature",
      "properties": {
        "@id": "way/291884965",
        "amenity": "school",
        "name": "Vidya Bharathi High School",
        "@geometry": "center"
      },
      "geometry": {
        "type": "Point",
        "coordinates": [
          78.2896908,
          17.5034647
        ]
      },
      "id": "way/291884965"
    },
    {
      "type": "Feature",
      "properties": {
        "@id": "way/292385860",
        "amenity": "school",
        "name": "Don Bosco School",
        "@geometry": "center"
      },
      "geometry": {
        "type": "Point",
        "coordinates": [
          78.4257799,
          17.4537022
        ]
      },
      "id": "way/292385860"
    },
    {
      "type": "Feature",
      "properties": {
        "@id": "way/297191641",
        "amenity": "school",
        "name": "Shantiniketan",
        "@geometry": "center"
      },
      "geometry": {
        "type": "Point",
        "coordinates": [
          78.3502235,
          17.5123996
        ]
      },
      "id": "way/297191641"
    },
    {
      "type": "Feature",
      "properties": {
        "@id": "way/297191643",
        "amenity": "school",
        "name": "Government School",
        "@geometry": "center"
      },
      "geometry": {
        "type": "Point",
        "coordinates": [
          78.3495133,
          17.5126487
        ]
      },
      "id": "way/297191643"
    },
    {
      "type": "Feature",
      "properties": {
        "@id": "way/297191663",
        "amenity": "school",
        "name": "St. Rita School",
        "@geometry": "center"
      },
      "geometry": {
        "type": "Point",
        "coordinates": [
          78.353729,
          17.4976444
        ]
      },
      "id": "way/297191663"
    },
    {
      "type": "Feature",
      "properties": {
        "@id": "way/311079961",
        "addr:city": "Hyderabad",
        "addr:street": "road no 25",
        "amenity": "school",
        "name": "P Obul Reddy Public School (P.O.R.P.S)",
        "operator": "Andhra Mahila Sabha",
        "phone": "+91-40-23548912 / 23553238",
        "website": "https://www.amsporps.org/",
        "@geometry": "center"
      },
      "geometry": {
        "type": "Point",
        "coordinates": [
          78.4103343,
          17.437968
        ]
      },
      "id": "way/311079961"
    },
    {
      "type": "Feature",
      "properties": {
        "@id": "way/318606403",
        "amenity": "school",
        "@geometry": "center"
      },
      "geometry": {
        "type": "Point",
        "coordinates": [
          78.4647083,
          17.4107454
        ]
      },
      "id": "way/318606403"
    },
    {
      "type": "Feature",
      "properties": {
        "@id": "way/324532000",
        "amenity": "school",
        "@geometry": "center"
      },
      "geometry": {
        "type": "Point",
        "coordinates": [
          78.4781479,
          17.3954286
        ]
      },
      "id": "way/324532000"
    },
    {
      "type": "Feature",
      "properties": {
        "@id": "way/331212481",
        "amenity": "school",
        "operator:type": "government",
        "@geometry": "center"
      },
      "geometry": {
        "type": "Point",
        "coordinates": [
          78.3783157,
          17.4672877
        ]
      },
      "id": "way/331212481"
    },
    {
      "type": "Feature",
      "properties": {
        "@id": "way/331214101",
        "amenity": "school",
        "name": "Swathi High School",
        "@geometry": "center"
      },
      "geometry": {
        "type": "Point",
        "coordinates": [
          78.3925852,
          17.4445657
        ]
      },
      "id": "way/331214101"
    },
    {
      "type": "Feature",
      "properties": {
        "@id": "way/331354520",
        "addr:city": "Hyderabad",
        "amenity": "school",
        "email": "sssvvhyd@sssvv.edu.in",
        "name": "Sri Satya Sai Vidya Vihar High School",
        "name:etymology:wikidata": "Q483931",
        "phone": "+91 40 27408468",
        "website": "https://www.sssvv.edu.in/",
        "@geometry": "center"
      },
      "geometry": {
        "type": "Point",
        "coordinates": [
          78.5220925,
          17.3990149
        ]
      },
      "id": "way/331354520"
    },
    {
      "type": "Feature",
      "properties": {
        "@id": "way/331632943",
        "amenity": "school",
        "@geometry": "center"
      },
      "geometry": {
        "type": "Point",
        "coordinates": [
          78.5643823,
          17.4728333
        ]
      },
      "id": "way/331632943"
    },
    {
      "type": "Feature",
      "properties": {
        "@id": "way/331793221",
        "amenity": "school",
        "@geometry": "center"
      },
      "geometry": {
        "type": "Point",
        "coordinates": [
          78.4143689,
          17.4975614
        ]
      },
      "id": "way/331793221"
    },
    {
      "type": "Feature",
      "properties": {
        "@id": "way/331980828",
        "amenity": "school",
        "name": "New Century School",
        "@geometry": "center"
      },
      "geometry": {
        "type": "Point",
        "coordinates": [
          78.4165507,
          17.494695
        ]
      },
      "id": "way/331980828"
    },
    {
      "type": "Feature",
      "properties": {
        "@id": "way/339718080",
        "amenity": "school",
        "building": "school",
        "name": "Gautham Grammar High School",
        "@geometry": "center"
      },
      "geometry": {
        "type": "Point",
        "coordinates": [
          78.3660795,
          17.4617278
        ]
      },
      "id": "way/339718080"
    },
    {
      "type": "Feature",
      "properties": {
        "@id": "way/339798384",
        "addr:housenumber": "2439, BHEL MIG Rd, MIG Colony, MIG Phase I, MIG Colony, Serilingampally, Hyderabad, Telangana 502032",
        "amenity": "school",
        "name": "Sri Vani Vidya Niketan High School",
        "@geometry": "center"
      },
      "geometry": {
        "type": "Point",
        "coordinates": [
          78.3009153,
          17.4823559
        ]
      },
      "id": "way/339798384"
    },
    {
      "type": "Feature",
      "properties": {
        "@id": "way/341125535",
        "amenity": "school",
        "@geometry": "center"
      },
      "geometry": {
        "type": "Point",
        "coordinates": [
          78.2856373,
          17.4823971
        ]
      },
      "id": "way/341125535"
    },
    {
      "type": "Feature",
      "properties": {
        "@id": "way/342675477",
        "amenity": "school",
        "education": "school",
        "name": "The Shri Ram Universal School",
        "@geometry": "center"
      },
      "geometry": {
        "type": "Point",
        "coordinates": [
          78.3497364,
          17.4172887
        ]
      },
      "id": "way/342675477"
    },
    {
      "type": "Feature",
      "properties": {
        "@id": "way/343345260",
        "amenity": "school",
        "name": "Hyderabad Public School, Ramanthapur",
        "@geometry": "center"
      },
      "geometry": {
        "type": "Point",
        "coordinates": [
          78.5368402,
          17.4024052
        ]
      },
      "id": "way/343345260"
    },
    {
      "type": "Feature",
      "properties": {
        "@id": "way/343666748",
        "amenity": "school",
        "name": "Sanghamitra School",
        "@geometry": "center"
      },
      "geometry": {
        "type": "Point",
        "coordinates": [
          78.3870894,
          17.5036402
        ]
      },
      "id": "way/343666748"
    },
    {
      "type": "Feature",
      "properties": {
        "@id": "way/344212623",
        "amenity": "school",
        "check_date": "2024-03-16",
        "@geometry": "center"
      },
      "geometry": {
        "type": "Point",
        "coordinates": [
          78.391071,
          17.4911334
        ]
      },
      "id": "way/344212623"
    },
    {
      "type": "Feature",
      "properties": {
        "@id": "way/355678252",
        "amenity": "school",
        "building": "yes",
        "name": "Bhaskar Model High School",
        "@geometry": "center"
      },
      "geometry": {
        "type": "Point",
        "coordinates": [
          78.3889832,
          17.5003332
        ]
      },
      "id": "way/355678252"
    },
    {
      "type": "Feature",
      "properties": {
        "@id": "way/355953881",
        "amenity": "school",
        "building": "yes",
        "@geometry": "center"
      },
      "geometry": {
        "type": "Point",
        "coordinates": [
          78.3207132,
          17.4839527
        ]
      },
      "id": "way/355953881"
    },
    {
      "type": "Feature",
      "properties": {
        "@id": "way/356269588",
        "amenity": "school",
        "name": "Rv model hight school",
        "@geometry": "center"
      },
      "geometry": {
        "type": "Point",
        "coordinates": [
          78.4415176,
          17.5355888
        ]
      },
      "id": "way/356269588"
    },
    {
      "type": "Feature",
      "properties": {
        "@id": "way/356295344",
        "addr:city": "hyderabad",
        "addr:postcode": "500038",
        "addr:street": "Mumbai Highway",
        "amenity": "school",
        "building": "yes",
        "denomination": "catholic",
        "grades": "1-10",
        "name": "St Theresa Girls High School",
        "operator": "JMJ",
        "operator:type": "religious",
        "religion": "christian",
        "@geometry": "center"
      },
      "geometry": {
        "type": "Point",
        "coordinates": [
          78.4401318,
          17.4522517
        ]
      },
      "id": "way/356295344"
    },
    {
      "type": "Feature",
      "properties": {
        "@id": "way/356445594",
        "addr:street": "shapur nagar",
        "amenity": "school",
        "building": "yes",
        "@geometry": "center"
      },
      "geometry": {
        "type": "Point",
        "coordinates": [
          78.4436829,
          17.5155538
        ]
      },
      "id": "way/356445594"
    },
    {
      "type": "Feature",
      "properties": {
        "@id": "way/356492978",
        "addr:street": "shapur nagar",
        "amenity": "school",
        "building": "yes",
        "@geometry": "center"
      },
      "geometry": {
        "type": "Point",
        "coordinates": [
          78.4435273,
          17.5154958
        ]
      },
      "id": "way/356492978"
    },
    {
      "type": "Feature",
      "properties": {
        "@id": "way/356492996",
        "addr:street": "shapur nagar",
        "amenity": "school",
        "building": "yes",
        "@geometry": "center"
      },
      "geometry": {
        "type": "Point",
        "coordinates": [
          78.443475,
          17.5153883
        ]
      },
      "id": "way/356492996"
    },
    {
      "type": "Feature",
      "properties": {
        "@id": "way/356493062",
        "addr:street": "shapur nagar",
        "amenity": "school",
        "building": "yes",
        "@geometry": "center"
      },
      "geometry": {
        "type": "Point",
        "coordinates": [
          78.44345,
          17.5153181
        ]
      },
      "id": "way/356493062"
    },
    {
      "type": "Feature",
      "properties": {
        "@id": "way/356504430",
        "amenity": "school",
        "building": "yes",
        "name": "St.Thomas High School",
        "@geometry": "center"
      },
      "geometry": {
        "type": "Point",
        "coordinates": [
          78.4121627,
          17.4564407
        ]
      },
      "id": "way/356504430"
    },
    {
      "type": "Feature",
      "properties": {
        "@id": "way/356555597",
        "amenity": "school",
        "building": "yes",
        "name": "Loyola School",
        "@geometry": "center"
      },
      "geometry": {
        "type": "Point",
        "coordinates": [
          78.456036,
          17.3937102
        ]
      },
      "id": "way/356555597"
    },
    {
      "type": "Feature",
      "properties": {
        "@id": "way/356555685",
        "amenity": "school",
        "building": "yes",
        "name": "Loyola School",
        "@geometry": "center"
      },
      "geometry": {
        "type": "Point",
        "coordinates": [
          78.4545527,
          17.3950117
        ]
      },
      "id": "way/356555685"
    },
    {
      "type": "Feature",
      "properties": {
        "@id": "way/356563904",
        "amenity": "school",
        "@geometry": "center"
      },
      "geometry": {
        "type": "Point",
        "coordinates": [
          78.5181413,
          17.3581524
        ]
      },
      "id": "way/356563904"
    },
    {
      "type": "Feature",
      "properties": {
        "@id": "way/357047297",
        "amenity": "school",
        "building": "yes",
        "name": "Gowtham Model School",
        "@geometry": "center"
      },
      "geometry": {
        "type": "Point",
        "coordinates": [
          78.4641659,
          17.4434002
        ]
      },
      "id": "way/357047297"
    },
    {
      "type": "Feature",
      "properties": {
        "@id": "way/357088766",
        "addr:city": "Secunderabad",
        "addr:housenumber": "8-2-207/208",
        "addr:postcode": "500003",
        "addr:street": "Paranjyothi Street",
        "amenity": "school",
        "name": "Tagore's Home New Era Institute Secondary School",
        "@geometry": "center"
      },
      "geometry": {
        "type": "Point",
        "coordinates": [
          78.4982623,
          17.4389652
        ]
      },
      "id": "way/357088766"
    },
    {
      "type": "Feature",
      "properties": {
        "@id": "way/357111233",
        "amenity": "school",
        "name": "St Ann's Model High School",
        "@geometry": "center"
      },
      "geometry": {
        "type": "Point",
        "coordinates": [
          78.5297172,
          17.3618313
        ]
      },
      "id": "way/357111233"
    },
    {
      "type": "Feature",
      "properties": {
        "@id": "way/357159617",
        "amenity": "school",
        "@geometry": "center"
      },
      "geometry": {
        "type": "Point",
        "coordinates": [
          78.6111781,
          17.3177925
        ]
      },
      "id": "way/357159617"
    },
    {
      "type": "Feature",
      "properties": {
        "@id": "way/357161046",
        "amenity": "school",
        "name": "Krishnaveni high school",
        "@geometry": "center"
      },
      "geometry": {
        "type": "Point",
        "coordinates": [
          78.5281415,
          17.3618261
        ]
      },
      "id": "way/357161046"
    },
    {
      "type": "Feature",
      "properties": {
        "@id": "way/357166452",
        "amenity": "school",
        "@geometry": "center"
      },
      "geometry": {
        "type": "Point",
        "coordinates": [
          78.5276165,
          17.3694106
        ]
      },
      "id": "way/357166452"
    },
    {
      "type": "Feature",
      "properties": {
        "@id": "way/357594063",
        "amenity": "school",
        "name": "SRKS",
        "@geometry": "center"
      },
      "geometry": {
        "type": "Point",
        "coordinates": [
          78.5303878,
          17.3634503
        ]
      },
      "id": "way/357594063"
    },
    {
      "type": "Feature",
      "properties": {
        "@id": "way/357650447",
        "amenity": "school",
        "building": "yes",
        "name": "Vishwa Shanthi High School",
        "@geometry": "center"
      },
      "geometry": {
        "type": "Point",
        "coordinates": [
          78.5429968,
          17.3915868
        ]
      },
      "id": "way/357650447"
    },
    {
      "type": "Feature",
      "properties": {
        "@id": "way/362018570",
        "amenity": "school",
        "building": "yes",
        "name": "Goodwill Model School",
        "@geometry": "center"
      },
      "geometry": {
        "type": "Point",
        "coordinates": [
          78.4544202,
          17.3830739
        ]
      },
      "id": "way/362018570"
    },
    {
      "type": "Feature",
      "properties": {
        "@id": "way/368394812",
        "amenity": "school",
        "name": "MNR School",
        "@geometry": "center"
      },
      "geometry": {
        "type": "Point",
        "coordinates": [
          78.3149068,
          17.5040289
        ]
      },
      "id": "way/368394812"
    },
    {
      "type": "Feature",
      "properties": {
        "@id": "way/386432506",
        "addr:place": "Nacharam",
        "alt_name": "DPC Nacharam",
        "amenity": "school",
        "name": "Delhi Public School",
        "website": "https://dpsnacharam.com/",
        "@geometry": "center"
      },
      "geometry": {
        "type": "Point",
        "coordinates": [
          78.5551993,
          17.440238
        ]
      },
      "id": "way/386432506"
    },
    {
      "type": "Feature",
      "properties": {
        "@id": "way/413520492",
        "amenity": "school",
        "name": "Kotha yellaiah high school",
        "@geometry": "center"
      },
      "geometry": {
        "type": "Point",
        "coordinates": [
          78.4937321,
          17.439452
        ]
      },
      "id": "way/413520492"
    },
    {
      "type": "Feature",
      "properties": {
        "@id": "way/413840712",
        "amenity": "school",
        "building": "yes",
        "@geometry": "center"
      },
      "geometry": {
        "type": "Point",
        "coordinates": [
          78.4841722,
          17.4102227
        ]
      },
      "id": "way/413840712"
    },
    {
      "type": "Feature",
      "properties": {
        "@id": "way/437412061",
        "amenity": "school",
        "leisure": "playground",
        "@geometry": "center"
      },
      "geometry": {
        "type": "Point",
        "coordinates": [
          78.4093444,
          17.4192716
        ]
      },
      "id": "way/437412061"
    },
    {
      "type": "Feature",
      "properties": {
        "@id": "way/469353805",
        "amenity": "school",
        "name": "MNR Scottsdale School",
        "@geometry": "center"
      },
      "geometry": {
        "type": "Point",
        "coordinates": [
          78.3462117,
          17.5167154
        ]
      },
      "id": "way/469353805"
    },
    {
      "type": "Feature",
      "properties": {
        "@id": "way/480983272",
        "amenity": "school",
        "name": "St Jospeph High School",
        "@geometry": "center"
      },
      "geometry": {
        "type": "Point",
        "coordinates": [
          78.5153178,
          17.3679894
        ]
      },
      "id": "way/480983272"
    },
    {
      "type": "Feature",
      "properties": {
        "@id": "node/513424892",
        "amenity": "school",
        "name": "Gautham Model School",
        "name:te": "గౌతమ్ మోడల్ పాఠశాల"
      },
      "geometry": {
        "type": "Point",
        "coordinates": [
          78.4453558,
          17.4427279
        ]
      },
      "id": "node/513424892"
    },
    {
      "type": "Feature",
      "properties": {
        "@id": "way/520463958",
        "amenity": "school",
        "name": "Epistemo Global",
        "operator": "Vickas Concept Schools",
        "@geometry": "center"
      },
      "geometry": {
        "type": "Point",
        "coordinates": [
          78.3040535,
          17.4685742
        ]
      },
      "id": "way/520463958"
    },
    {
      "type": "Feature",
      "properties": {
        "@id": "way/584703599",
        "amenity": "school",
        "name": "SRKS",
        "@geometry": "center"
      },
      "geometry": {
        "type": "Point",
        "coordinates": [
          78.5302573,
          17.3634617
        ]
      },
      "id": "way/584703599"
    },
    {
      "type": "Feature",
      "properties": {
        "@id": "way/596738251",
        "addr:city": "hyderabad",
        "addr:housenumber": "INCOIS",
        "addr:postcode": "501002",
        "addr:street": "kakathiya hills",
        "amenity": "school",
        "building": "school",
        "building:levels": "1",
        "name": "Spring Board International Pre-School",
        "@geometry": "center"
      },
      "geometry": {
        "type": "Point",
        "coordinates": [
          78.3987568,
          17.5215028
        ]
      },
      "id": "way/596738251"
    },
    {
      "type": "Feature",
      "properties": {
        "@id": "way/616220205",
        "addr:city": "Hyderabad, Telangana.",
        "addr:postcode": "500070",
        "amenity": "school",
        "name": "siddhartha model high school",
        "@geometry": "center"
      },
      "geometry": {
        "type": "Point",
        "coordinates": [
          78.5792372,
          17.3312085
        ]
      },
      "id": "way/616220205"
    },
    {
      "type": "Feature",
      "properties": {
        "@id": "way/627572568",
        "amenity": "school",
        "@geometry": "center"
      },
      "geometry": {
        "type": "Point",
        "coordinates": [
          78.3366752,
          17.4945928
        ]
      },
      "id": "way/627572568"
    },
    {
      "type": "Feature",
      "properties": {
        "@id": "way/627572569",
        "amenity": "school",
        "@geometry": "center"
      },
      "geometry": {
        "type": "Point",
        "coordinates": [
          78.3366465,
          17.4940592
        ]
      },
      "id": "way/627572569"
    },
    {
      "type": "Feature",
      "properties": {
        "@id": "node/634123608",
        "amenity": "school",
        "name": "S.V.E.S High School"
      },
      "geometry": {
        "type": "Point",
        "coordinates": [
          78.5122245,
          17.4054551
        ]
      },
      "id": "node/634123608"
    },
    {
      "type": "Feature",
      "properties": {
        "@id": "node/634123799",
        "amenity": "school",
        "name": "Jyothi Bala Mandir High School"
      },
      "geometry": {
        "type": "Point",
        "coordinates": [
          78.5135035,
          17.4075707
        ]
      },
      "id": "node/634123799"
    },
    {
      "type": "Feature",
      "properties": {
        "@id": "way/635428026",
        "amenity": "school",
        "barrier": "wall",
        "name": "Jubilee Hills Public School",
        "@geometry": "center"
      },
      "geometry": {
        "type": "Point",
        "coordinates": [
          78.4090382,
          17.4193562
        ]
      },
      "id": "way/635428026"
    },
    {
      "type": "Feature",
      "properties": {
        "@id": "way/635428028",
        "amenity": "school",
        "barrier": "wall",
        "name": "Bharatiya Vidya Bhavan's Public School",
        "@geometry": "center"
      },
      "geometry": {
        "type": "Point",
        "coordinates": [
          78.4106805,
          17.418694
        ]
      },
      "id": "way/635428028"
    },
    {
      "type": "Feature",
      "properties": {
        "@id": "way/642221208",
        "amenity": "school",
        "name": "Iqbalia International school",
        "@geometry": "center"
      },
      "geometry": {
        "type": "Point",
        "coordinates": [
          78.3988911,
          17.4345485
        ]
      },
      "id": "way/642221208"
    },
    {
      "type": "Feature",
      "properties": {
        "@id": "way/647243010",
        "addr:city": "Hyderabad",
        "amenity": "school",
        "@geometry": "center"
      },
      "geometry": {
        "type": "Point",
        "coordinates": [
          78.4405187,
          17.4533848
        ]
      },
      "id": "way/647243010"
    },
    {
      "type": "Feature",
      "properties": {
        "@id": "node/677300258",
        "amenity": "school",
        "name": "Jingle Bell School"
      },
      "geometry": {
        "type": "Point",
        "coordinates": [
          78.4884345,
          17.3957311
        ]
      },
      "id": "node/677300258"
    },
    {
      "type": "Feature",
      "properties": {
        "@id": "way/704493174",
        "amenity": "school",
        "name": "Delhi Public School",
        "@geometry": "center"
      },
      "geometry": {
        "type": "Point",
        "coordinates": [
          78.3387885,
          17.506975
        ]
      },
      "id": "way/704493174"
    },
    {
      "type": "Feature",
      "properties": {
        "@id": "node/726146076",
        "amenity": "school",
        "name": "Narayana Junior College, AIEEE"
      },
      "geometry": {
        "type": "Point",
        "coordinates": [
          78.4883969,
          17.4004331
        ]
      },
      "id": "node/726146076"
    },
    {
      "type": "Feature",
      "properties": {
        "@id": "node/726243304",
        "amenity": "school",
        "name": "Holy Mary Girls High School"
      },
      "geometry": {
        "type": "Point",
        "coordinates": [
          78.4578133,
          17.404402
        ]
      },
      "id": "node/726243304"
    },
    {
      "type": "Feature",
      "properties": {
        "@id": "node/726274913",
        "amenity": "school",
        "name": "St.Josephs High School"
      },
      "geometry": {
        "type": "Point",
        "coordinates": [
          78.4524941,
          17.3937581
        ]
      },
      "id": "node/726274913"
    },
    {
      "type": "Feature",
      "properties": {
        "@id": "node/727180831",
        "amenity": "school",
        "name": "Goutham Model School"
      },
      "geometry": {
        "type": "Point",
        "coordinates": [
          78.484836,
          17.4015388
        ]
      },
      "id": "node/727180831"
    },
    {
      "type": "Feature",
      "properties": {
        "@id": "node/728911854",
        "amenity": "school",
        "name": "Sujatha High School"
      },
      "geometry": {
        "type": "Point",
        "coordinates": [
          78.4730227,
          17.3947951
        ]
      },
      "id": "node/728911854"
    },
    {
      "type": "Feature",
      "properties": {
        "@id": "node/728912657",
        "amenity": "school",
        "name": "Little Flower High School"
      },
      "geometry": {
        "type": "Point",
        "coordinates": [
          78.474754,
          17.393638
        ]
      },
      "id": "node/728912657"
    },
    {
      "type": "Feature",
      "properties": {
        "@id": "node/728915591",
        "amenity": "school",
        "name": "Little Flower Primary School"
      },
      "geometry": {
        "type": "Point",
        "coordinates": [
          78.4740505,
          17.3925192
        ]
      },
      "id": "node/728915591"
    },
    {
      "type": "Feature",
      "properties": {
        "@id": "way/732247772",
        "amenity": "school",
        "name": "ambedkar college",
        "@geometry": "center"
      },
      "geometry": {
        "type": "Point",
        "coordinates": [
          78.4997908,
          17.4006987
        ]
      },
      "id": "way/732247772"
    },
    {
      "type": "Feature",
      "properties": {
        "@id": "way/732260574",
        "amenity": "school",
        "@geometry": "center"
      },
      "geometry": {
        "type": "Point",
        "coordinates": [
          78.4399926,
          17.5505058
        ]
      },
      "id": "way/732260574"
    },
    {
      "type": "Feature",
      "properties": {
        "@id": "way/733458158",
        "amenity": "school",
        "@geometry": "center"
      },
      "geometry": {
        "type": "Point",
        "coordinates": [
          78.5188782,
          17.426437
        ]
      },
      "id": "way/733458158"
    },
    {
      "type": "Feature",
      "properties": {
        "@id": "node/739161413",
        "amenity": "school",
        "name": "Nasr School"
      },
      "geometry": {
        "type": "Point",
        "coordinates": [
          78.4588295,
          17.4113728
        ]
      },
      "id": "node/739161413"
    },
    {
      "type": "Feature",
      "properties": {
        "@id": "way/740695877",
        "amenity": "school",
        "building": "school",
        "layer": "1",
        "name": "ST. JOSEPH'S HIGH SCHOOL",
        "@geometry": "center"
      },
      "geometry": {
        "type": "Point",
        "coordinates": [
          78.5341855,
          17.3971684
        ]
      },
      "id": "way/740695877"
    },
    {
      "type": "Feature",
      "properties": {
        "@id": "way/740792326",
        "amenity": "school",
        "name": "Global Edge School",
        "@geometry": "center"
      },
      "geometry": {
        "type": "Point",
        "coordinates": [
          78.3875923,
          17.4497775
        ]
      },
      "id": "way/740792326"
    },
    {
      "type": "Feature",
      "properties": {
        "@id": "way/740795301",
        "addr:city": "Hyderabad",
        "addr:postcode": "500076",
        "addr:street": "Nacharam",
        "amenity": "school",
        "name": "Pratibha High School",
        "@geometry": "center"
      },
      "geometry": {
        "type": "Point",
        "coordinates": [
          78.5518038,
          17.4298184
        ]
      },
      "id": "way/740795301"
    },
    {
      "type": "Feature",
      "properties": {
        "@id": "way/751542510",
        "amenity": "school",
        "name": "Green Gables International school",
        "@geometry": "center"
      },
      "geometry": {
        "type": "Point",
        "coordinates": [
          78.3913668,
          17.4495633
        ]
      },
      "id": "way/751542510"
    },
    {
      "type": "Feature",
      "properties": {
        "@id": "way/751542515",
        "amenity": "school",
        "name": "Bhavan's Atmakuri Rama Rao School",
        "@geometry": "center"
      },
      "geometry": {
        "type": "Point",
        "coordinates": [
          78.3973381,
          17.433242
        ]
      },
      "id": "way/751542515"
    },
    {
      "type": "Feature",
      "properties": {
        "@id": "node/762994074",
        "amenity": "school",
        "name": "Wesley High School",
        "name:te": "వెస్లీ హై స్కూల్"
      },
      "geometry": {
        "type": "Point",
        "coordinates": [
          78.4865035,
          17.4404012
        ]
      },
      "id": "node/762994074"
    },
    {
      "type": "Feature",
      "properties": {
        "@id": "way/776426192",
        "addr:city": "patancheru",
        "addr:postcode": "502319",
        "addr:street": "Gowtham nagar",
        "amenity": "school",
        "name": "Origin techno school",
        "@geometry": "center"
      },
      "geometry": {
        "type": "Point",
        "coordinates": [
          78.2609304,
          17.531385
        ]
      },
      "id": "way/776426192"
    },
    {
      "type": "Feature",
      "properties": {
        "@id": "way/776657250",
        "amenity": "school",
        "name": "little flower school",
        "@geometry": "center"
      },
      "geometry": {
        "type": "Point",
        "coordinates": [
          78.5469701,
          17.3454634
        ]
      },
      "id": "way/776657250"
    },
    {
      "type": "Feature",
      "properties": {
        "@id": "way/776657905",
        "amenity": "school",
        "@geometry": "center"
      },
      "geometry": {
        "type": "Point",
        "coordinates": [
          78.5072488,
          17.4138466
        ]
      },
      "id": "way/776657905"
    },
    {
      "type": "Feature",
      "properties": {
        "@id": "way/776657906",
        "amenity": "school",
        "@geometry": "center"
      },
      "geometry": {
        "type": "Point",
        "coordinates": [
          78.5067375,
          17.4134113
        ]
      },
      "id": "way/776657906"
    },
    {
      "type": "Feature",
      "properties": {
        "@id": "way/797934052",
        "amenity": "school",
        "name": "Delhi World School",
        "@geometry": "center"
      },
      "geometry": {
        "type": "Point",
        "coordinates": [
          78.4543716,
          17.4943114
        ]
      },
      "id": "way/797934052"
    },
    {
      "type": "Feature",
      "properties": {
        "@id": "way/815012412",
        "amenity": "school",
        "@geometry": "center"
      },
      "geometry": {
        "type": "Point",
        "coordinates": [
          78.3660561,
          17.4956065
        ]
      },
      "id": "way/815012412"
    },
    {
      "type": "Feature",
      "properties": {
        "@id": "node/827576336",
        "amenity": "school",
        "name": "Sharada High"
      },
      "geometry": {
        "type": "Point",
        "coordinates": [
          78.3914009,
          17.4412917
        ]
      },
      "id": "node/827576336"
    },
    {
      "type": "Feature",
      "properties": {
        "@id": "way/835027606",
        "amenity": "school",
        "@geometry": "center"
      },
      "geometry": {
        "type": "Point",
        "coordinates": [
          78.5433786,
          17.47109
        ]
      },
      "id": "way/835027606"
    },
    {
      "type": "Feature",
      "properties": {
        "@id": "way/835027610",
        "amenity": "school",
        "name": "D.A.V. Public School",
        "wikidata": "Q5204354",
        "wikipedia": "en:DAV Safilguda",
        "@geometry": "center"
      },
      "geometry": {
        "type": "Point",
        "coordinates": [
          78.5441122,
          17.463811
        ]
      },
      "id": "way/835027610"
    },
    {
      "type": "Feature",
      "properties": {
        "@id": "node/845467748",
        "amenity": "school",
        "name": "Hyderabad Public School"
      },
      "geometry": {
        "type": "Point",
        "coordinates": [
          78.5362094,
          17.400104
        ]
      },
      "id": "node/845467748"
    },
    {
      "type": "Feature",
      "properties": {
        "@id": "way/856352216",
        "amenity": "school",
        "name": "Delhi Public School",
        "@geometry": "center"
      },
      "geometry": {
        "type": "Point",
        "coordinates": [
          78.3718849,
          17.4172449
        ]
      },
      "id": "way/856352216"
    },
    {
      "type": "Feature",
      "properties": {
        "@id": "way/860523307",
        "amenity": "school",
        "name": "AISFM",
        "name:en": "AISFM",
        "operator": "private",
        "@geometry": "center"
      },
      "geometry": {
        "type": "Point",
        "coordinates": [
          78.422609,
          17.4275284
        ]
      },
      "id": "way/860523307"
    },
    {
      "type": "Feature",
      "properties": {
        "@id": "way/867980241",
        "addr:city": "Hyderabad",
        "amenity": "school",
        "name": "Governament High School",
        "@geometry": "center"
      },
      "geometry": {
        "type": "Point",
        "coordinates": [
          78.4046153,
          17.3204026
        ]
      },
      "id": "way/867980241"
    },
    {
      "type": "Feature",
      "properties": {
        "@id": "way/872852682",
        "amenity": "school",
        "name": "Pragnya Montessari School",
        "@geometry": "center"
      },
      "geometry": {
        "type": "Point",
        "coordinates": [
          78.3989862,
          17.5256611
        ]
      },
      "id": "way/872852682"
    },
    {
      "type": "Feature",
      "properties": {
        "@id": "way/874589689",
        "amenity": "school",
        "@geometry": "center"
      },
      "geometry": {
        "type": "Point",
        "coordinates": [
          78.5591722,
          17.3998739
        ]
      },
      "id": "way/874589689"
    },
    {
      "type": "Feature",
      "properties": {
        "@id": "way/874988548",
        "addr:housename": "Kendriya Vidyalaya No. 2 Uppal",
        "addr:postcode": "500039",
        "addr:street": "Meher Garden Rd, P & T Colony",
        "amenity": "school",
        "brand": "Kendriya Vidyalaya",
        "brand:wikidata": "Q1156653",
        "designation": "KV no. 2 Uppal",
        "name": "Kendriya Vidyalaya No. 2",
        "operator:type": "government_non_profit",
        "@geometry": "center"
      },
      "geometry": {
        "type": "Point",
        "coordinates": [
          78.5594611,
          17.4041029
        ]
      },
      "id": "way/874988548"
    },
    {
      "type": "Feature",
      "properties": {
        "@id": "way/878100150",
        "amenity": "school",
        "education": "school",
        "@geometry": "center"
      },
      "geometry": {
        "type": "Point",
        "coordinates": [
          78.35584,
          17.5138706
        ]
      },
      "id": "way/878100150"
    },
    {
      "type": "Feature",
      "properties": {
        "@id": "way/879137458",
        "amenity": "school",
        "name": "Sancta Maria International School",
        "@geometry": "center"
      },
      "geometry": {
        "type": "Point",
        "coordinates": [
          78.3194476,
          17.4822634
        ]
      },
      "id": "way/879137458"
    },
    {
      "type": "Feature",
      "properties": {
        "@id": "way/879138502",
        "addr:housenumber": "147, Doyens Rd, Doyens Colony, Serilingampally, Hyderabad, Telangana 500019",
        "amenity": "school",
        "name": "Vidyanjali High School",
        "@geometry": "center"
      },
      "geometry": {
        "type": "Point",
        "coordinates": [
          78.3288598,
          17.4749503
        ]
      },
      "id": "way/879138502"
    },
    {
      "type": "Feature",
      "properties": {
        "@id": "way/879138798",
        "amenity": "school",
        "name": "CHIREC International School Gachibowli Campus",
        "@geometry": "center"
      },
      "geometry": {
        "type": "Point",
        "coordinates": [
          78.3324071,
          17.4730861
        ]
      },
      "id": "way/879138798"
    },
    {
      "type": "Feature",
      "properties": {
        "@id": "way/879198193",
        "amenity": "school",
        "name": "Jain Heritage School",
        "@geometry": "center"
      },
      "geometry": {
        "type": "Point",
        "coordinates": [
          78.3443811,
          17.4643557
        ]
      },
      "id": "way/879198193"
    },
    {
      "type": "Feature",
      "properties": {
        "@id": "way/880085371",
        "amenity": "school",
        "education": "school",
        "name": "Unicent School",
        "@geometry": "center"
      },
      "geometry": {
        "type": "Point",
        "coordinates": [
          78.3568789,
          17.4996266
        ]
      },
      "id": "way/880085371"
    },
    {
      "type": "Feature",
      "properties": {
        "@id": "way/880090855",
        "amenity": "school",
        "name": "Vasara Vidyalaya High School",
        "@geometry": "center"
      },
      "geometry": {
        "type": "Point",
        "coordinates": [
          78.4154659,
          17.5025853
        ]
      },
      "id": "way/880090855"
    },
    {
      "type": "Feature",
      "properties": {
        "@id": "way/881191665",
        "addr:city": "Uppal",
        "addr:postcode": "500039",
        "addr:street": "Prashanth Nagar",
        "amenity": "school",
        "area": "yes",
        "name": "St. Mark's High School",
        "@geometry": "center"
      },
      "geometry": {
        "type": "Point",
        "coordinates": [
          78.5580248,
          17.4059427
        ]
      },
      "id": "way/881191665"
    },
    {
      "type": "Feature",
      "properties": {
        "@id": "way/881192328",
        "amenity": "school",
        "name": "Srinivasa Digi School",
        "@geometry": "center"
      },
      "geometry": {
        "type": "Point",
        "coordinates": [
          78.5625474,
          17.406447
        ]
      },
      "id": "way/881192328"
    },
    {
      "type": "Feature",
      "properties": {
        "@id": "way/883215528",
        "addr:city": "Hyderabad",
        "addr:postcode": "500049",
        "amenity": "school",
        "name": "DAV Public School",
        "@geometry": "center"
      },
      "geometry": {
        "type": "Point",
        "coordinates": [
          78.3671911,
          17.4934077
        ]
      },
      "id": "way/883215528"
    },
    {
      "type": "Feature",
      "properties": {
        "@id": "way/885449286",
        "amenity": "school",
        "name": "MDA vidhyalaya",
        "@geometry": "center"
      },
      "geometry": {
        "type": "Point",
        "coordinates": [
          78.5050877,
          17.3682898
        ]
      },
      "id": "way/885449286"
    },
    {
      "type": "Feature",
      "properties": {
        "@id": "node/890303727",
        "amenity": "school",
        "name": "Springfields School"
      },
      "geometry": {
        "type": "Point",
        "coordinates": [
          78.4445973,
          17.4135412
        ]
      },
      "id": "node/890303727"
    },
    {
      "type": "Feature",
      "properties": {
        "@id": "way/893226793",
        "amenity": "school",
        "landuse": "education",
        "name": "Meridian School",
        "wikidata": "Q6819364",
        "wikipedia": "en:Meridian School",
        "@geometry": "center"
      },
      "geometry": {
        "type": "Point",
        "coordinates": [
          78.3843157,
          17.4538667
        ]
      },
      "id": "way/893226793"
    },
    {
      "type": "Feature",
      "properties": {
        "@id": "node/894000353",
        "amenity": "school",
        "name": "MRR School"
      },
      "geometry": {
        "type": "Point",
        "coordinates": [
          78.5795251,
          17.4800428
        ]
      },
      "id": "node/894000353"
    },
    {
      "type": "Feature",
      "properties": {
        "@id": "way/896472886",
        "amenity": "school",
        "name": "St.Martins School",
        "@geometry": "center"
      },
      "geometry": {
        "type": "Point",
        "coordinates": [
          78.4500262,
          17.4911247
        ]
      },
      "id": "way/896472886"
    },
    {
      "type": "Feature",
      "properties": {
        "@id": "way/899386536",
        "amenity": "school",
        "name": "North City High School",
        "@geometry": "center"
      },
      "geometry": {
        "type": "Point",
        "coordinates": [
          78.4323126,
          17.5393498
        ]
      },
      "id": "way/899386536"
    },
    {
      "type": "Feature",
      "properties": {
        "@id": "way/899386543",
        "amenity": "school",
        "name": "KVM High School",
        "@geometry": "center"
      },
      "geometry": {
        "type": "Point",
        "coordinates": [
          78.4352554,
          17.5432685
        ]
      },
      "id": "way/899386543"
    },
    {
      "type": "Feature",
      "properties": {
        "@id": "way/899386544",
        "amenity": "school",
        "name": "Neelima High School",
        "@geometry": "center"
      },
      "geometry": {
        "type": "Point",
        "coordinates": [
          78.4376798,
          17.5419736
        ]
      },
      "id": "way/899386544"
    },
    {
      "type": "Feature",
      "properties": {
        "@id": "way/902917019",
        "amenity": "school",
        "building": "yes",
        "@geometry": "center"
      },
      "geometry": {
        "type": "Point",
        "coordinates": [
          78.5100487,
          17.4224768
        ]
      },
      "id": "way/902917019"
    },
    {
      "type": "Feature",
      "properties": {
        "@id": "way/902926972",
        "addr:city": "hyderabad",
        "addr:postcode": "500050",
        "addr:street": "Manjeera Pipeline Road",
        "amenity": "school",
        "grades": "0-12",
        "name": "Kallam Anji Reddy School",
        "name:etymology:wikidata": "Q6353527",
        "@geometry": "center"
      },
      "geometry": {
        "type": "Point",
        "coordinates": [
          78.3405523,
          17.4912016
        ]
      },
      "id": "way/902926972"
    },
    {
      "type": "Feature",
      "properties": {
        "@id": "way/902961594",
        "amenity": "school",
        "name": "Gautami Vidya Kshetra School",
        "@geometry": "center"
      },
      "geometry": {
        "type": "Point",
        "coordinates": [
          78.3472675,
          17.4986832
        ]
      },
      "id": "way/902961594"
    },
    {
      "type": "Feature",
      "properties": {
        "@id": "way/1043717438",
        "amenity": "school",
        "name": "sharadha school",
        "@geometry": "center"
      },
      "geometry": {
        "type": "Point",
        "coordinates": [
          78.4720005,
          17.3413271
        ]
      },
      "id": "way/1043717438"
    },
    {
      "type": "Feature",
      "properties": {
        "@id": "way/1051807913",
        "amenity": "school",
        "name": "Auditorium",
        "@geometry": "center"
      },
      "geometry": {
        "type": "Point",
        "coordinates": [
          78.5338886,
          17.4908828
        ]
      },
      "id": "way/1051807913"
    },
    {
      "type": "Feature",
      "properties": {
        "@id": "way/1051807914",
        "amenity": "school",
        "name": "Auditorium",
        "@geometry": "center"
      },
      "geometry": {
        "type": "Point",
        "coordinates": [
          78.5344648,
          17.49173
        ]
      },
      "id": "way/1051807914"
    },
    {
      "type": "Feature",
      "properties": {
        "@id": "way/1057075649",
        "amenity": "school",
        "name": "goldcrest school",
        "@geometry": "center"
      },
      "geometry": {
        "type": "Point",
        "coordinates": [
          78.3326866,
          17.4398889
        ]
      },
      "id": "way/1057075649"
    },
    {
      "type": "Feature",
      "properties": {
        "@id": "node/1058611114",
        "amenity": "school"
      },
      "geometry": {
        "type": "Point",
        "coordinates": [
          78.5346675,
          17.4260406
        ]
      },
      "id": "node/1058611114"
    },
    {
      "type": "Feature",
      "properties": {
        "@id": "node/1070473380",
        "amenity": "school",
        "name": "Sandeepamn Vidyalaya"
      },
      "geometry": {
        "type": "Point",
        "coordinates": [
          78.5361627,
          17.4260413
        ]
      },
      "id": "node/1070473380"
    },
    {
      "type": "Feature",
      "properties": {
        "@id": "way/1076262697",
        "amenity": "school",
        "name": "public school",
        "@geometry": "center"
      },
      "geometry": {
        "type": "Point",
        "coordinates": [
          78.5368257,
          17.4023884
        ]
      },
      "id": "way/1076262697"
    },
    {
      "type": "Feature",
      "properties": {
        "@id": "way/1082807841",
        "amenity": "school",
        "name": "Freedom high School",
        "@geometry": "center"
      },
      "geometry": {
        "type": "Point",
        "coordinates": [
          78.4283233,
          17.5105171
        ]
      },
      "id": "way/1082807841"
    },
    {
      "type": "Feature",
      "properties": {
        "@id": "way/1124048925",
        "amenity": "school",
        "building": "yes",
        "@geometry": "center"
      },
      "geometry": {
        "type": "Point",
        "coordinates": [
          78.4439387,
          17.3626504
        ]
      },
      "id": "way/1124048925"
    },
    {
      "type": "Feature",
      "properties": {
        "@id": "way/1124063177",
        "amenity": "school",
        "building": "yes",
        "name": "Govt High School",
        "@geometry": "center"
      },
      "geometry": {
        "type": "Point",
        "coordinates": [
          78.4414467,
          17.3596959
        ]
      },
      "id": "way/1124063177"
    },
    {
      "type": "Feature",
      "properties": {
        "@id": "way/1124068127",
        "amenity": "school",
        "name": "School ground",
        "@geometry": "center"
      },
      "geometry": {
        "type": "Point",
        "coordinates": [
          78.5642498,
          17.4547191
        ]
      },
      "id": "way/1124068127"
    },
    {
      "type": "Feature",
      "properties": {
        "@id": "way/1157549417",
        "amenity": "school",
        "@geometry": "center"
      },
      "geometry": {
        "type": "Point",
        "coordinates": [
          78.4480927,
          17.3779716
        ]
      },
      "id": "way/1157549417"
    },
    {
      "type": "Feature",
      "properties": {
        "@id": "way/1157549420",
        "addr:city": "Ambedkar nagar colony, Tappa chabhudra",
        "addr:postcode": "500006",
        "amenity": "school",
        "@geometry": "center"
      },
      "geometry": {
        "type": "Point",
        "coordinates": [
          78.4488915,
          17.3748898
        ]
      },
      "id": "way/1157549420"
    },
    {
      "type": "Feature",
      "properties": {
        "@id": "way/1157556429",
        "addr:street": "shapur nagar",
        "amenity": "school",
        "@geometry": "center"
      },
      "geometry": {
        "type": "Point",
        "coordinates": [
          78.4426523,
          17.5142498
        ]
      },
      "id": "way/1157556429"
    },
    {
      "type": "Feature",
      "properties": {
        "@id": "way/1157556430",
        "addr:street": "shapur nagar",
        "amenity": "school",
        "@geometry": "center"
      },
      "geometry": {
        "type": "Point",
        "coordinates": [
          78.4429813,
          17.5142477
        ]
      },
      "id": "way/1157556430"
    },
    {
      "type": "Feature",
      "properties": {
        "@id": "node/1166215301",
        "amenity": "school"
      },
      "geometry": {
        "type": "Point",
        "coordinates": [
          78.4270626,
          17.4665149
        ]
      },
      "id": "node/1166215301"
    },
    {
      "type": "Feature",
      "properties": {
        "@id": "way/1172957602",
        "amenity": "school",
        "@geometry": "center"
      },
      "geometry": {
        "type": "Point",
        "coordinates": [
          78.5454126,
          17.3914053
        ]
      },
      "id": "way/1172957602"
    },
    {
      "type": "Feature",
      "properties": {
        "@id": "way/1212194504",
        "amenity": "school",
        "name": "Vista International School",
        "@geometry": "center"
      },
      "geometry": {
        "type": "Point",
        "coordinates": [
          78.2978976,
          17.4336236
        ]
      },
      "id": "way/1212194504"
    },
    {
      "type": "Feature",
      "properties": {
        "@id": "way/1225570321",
        "amenity": "school",
        "@geometry": "center"
      },
      "geometry": {
        "type": "Point",
        "coordinates": [
          78.4704771,
          17.339574
        ]
      },
      "id": "way/1225570321"
    },
    {
      "type": "Feature",
      "properties": {
        "@id": "way/1225572881",
        "amenity": "school",
        "name": "Emily The School",
        "@geometry": "center"
      },
      "geometry": {
        "type": "Point",
        "coordinates": [
          78.4748493,
          17.3424099
        ]
      },
      "id": "way/1225572881"
    },
    {
      "type": "Feature",
      "properties": {
        "@id": "way/1234690798",
        "amenity": "school",
        "education": "school",
        "name": "The Gaudium School",
        "@geometry": "center"
      },
      "geometry": {
        "type": "Point",
        "coordinates": [
          78.3490353,
          17.421763
        ]
      },
      "id": "way/1234690798"
    },
    {
      "type": "Feature",
      "properties": {
        "@id": "way/1257381221",
        "amenity": "school",
        "name": "navajyothi",
        "@geometry": "center"
      },
      "geometry": {
        "type": "Point",
        "coordinates": [
          78.4453099,
          17.4902187
        ]
      },
      "id": "way/1257381221"
    },
    {
      "type": "Feature",
      "properties": {
        "@id": "way/1258247709",
        "amenity": "school",
        "name": "NARAYANA",
        "@geometry": "center"
      },
      "geometry": {
        "type": "Point",
        "coordinates": [
          78.5710126,
          17.4761162
        ]
      },
      "id": "way/1258247709"
    },
    {
      "type": "Feature",
      "properties": {
        "@id": "way/1258248379",
        "amenity": "school",
        "name": "SRI CHAITANYA",
        "@geometry": "center"
      },
      "geometry": {
        "type": "Point",
        "coordinates": [
          78.5709823,
          17.4765669
        ]
      },
      "id": "way/1258248379"
    },
    {
      "type": "Feature",
      "properties": {
        "@id": "way/1322945923",
        "amenity": "school",
        "education": "school",
        "name": "Manthan International School",
        "@geometry": "center"
      },
      "geometry": {
        "type": "Point",
        "coordinates": [
          78.298431,
          17.4601687
        ]
      },
      "id": "way/1322945923"
    },
    {
      "type": "Feature",
      "properties": {
        "@id": "node/1360401090",
        "amenity": "school",
        "name": "Johnson Grammar School"
      },
      "geometry": {
        "type": "Point",
        "coordinates": [
          78.5427381,
          17.4167468
        ]
      },
      "id": "node/1360401090"
    },
    {
      "type": "Feature",
      "properties": {
        "@id": "node/1360401092",
        "amenity": "school",
        "name": "Narayana Junior College"
      },
      "geometry": {
        "type": "Point",
        "coordinates": [
          78.544213,
          17.4187133
        ]
      },
      "id": "node/1360401092"
    },
    {
      "type": "Feature",
      "properties": {
        "@id": "node/1370770554",
        "amenity": "school",
        "name": "Institute of Aircraft Maintenance Engineering"
      },
      "geometry": {
        "type": "Point",
        "coordinates": [
          78.4573288,
          17.4593819
        ]
      },
      "id": "node/1370770554"
    },
    {
      "type": "Feature",
      "properties": {
        "@id": "way/1392300168",
        "addr:city": "Hyderabad",
        "addr:housenumber": "4-102",
        "addr:postcode": "500067",
        "addr:street": "Suchitra Junction",
        "amenity": "school",
        "landuse": "education",
        "name": "Suchitra Academy",
        "phone": "040 2723 0895",
        "website": "https://suchitra.in/",
        "@geometry": "center"
      },
      "geometry": {
        "type": "Point",
        "coordinates": [
          78.4752669,
          17.5014134
        ]
      },
      "id": "way/1392300168"
    },
    {
      "type": "Feature",
      "properties": {
        "@id": "way/1421535233",
        "amenity": "school",
        "name": "Little Bridge School",
        "@geometry": "center"
      },
      "geometry": {
        "type": "Point",
        "coordinates": [
          78.2796537,
          17.4444655
        ]
      },
      "id": "way/1421535233"
    },
    {
      "type": "Feature",
      "properties": {
        "@id": "node/1435322434",
        "addr:postcode": "500047",
        "addr:street": "Malkajgiri",
        "amenity": "school",
        "name": "Balaji High School"
      },
      "geometry": {
        "type": "Point",
        "coordinates": [
          78.5334689,
          17.4510732
        ]
      },
      "id": "node/1435322434"
    },
    {
      "type": "Feature",
      "properties": {
        "@id": "node/1435322435",
        "addr:postcode": "50004",
        "addr:street": "Vani Nagar",
        "amenity": "school",
        "name": "Durga Bhavani High School"
      },
      "geometry": {
        "type": "Point",
        "coordinates": [
          78.5341421,
          17.4516847
        ]
      },
      "id": "node/1435322435"
    },
    {
      "type": "Feature",
      "properties": {
        "@id": "node/1435322436",
        "addr:postcode": "500047",
        "addr:street": "Malkajgiri",
        "amenity": "school",
        "name": "Zilla Parishad Boys High School"
      },
      "geometry": {
        "type": "Point",
        "coordinates": [
          78.5340322,
          17.4505256
        ]
      },
      "id": "node/1435322436"
    },
    {
      "type": "Feature",
      "properties": {
        "@id": "node/1435322437",
        "addr:postcode": "500047",
        "addr:street": "Malkajgiri",
        "amenity": "school",
        "name": "Zilla Parishad Girls high School"
      },
      "geometry": {
        "type": "Point",
        "coordinates": [
          78.5333857,
          17.4504309
        ]
      },
      "id": "node/1435322437"
    },
    {
      "type": "Feature",
      "properties": {
        "@id": "node/1437365108",
        "addr:postcode": "500047",
        "addr:street": "Gautham Nagar",
        "amenity": "school",
        "name": "Saraswati High School"
      },
      "geometry": {
        "type": "Point",
        "coordinates": [
          78.5278602,
          17.4527246
        ]
      },
      "id": "node/1437365108"
    },
    {
      "type": "Feature",
      "properties": {
        "@id": "node/1437365125",
        "addr:postcode": "500047",
        "addr:street": "Gautham Nagar",
        "amenity": "school",
        "name": "Bhegas High School"
      },
      "geometry": {
        "type": "Point",
        "coordinates": [
          78.528005,
          17.4532108
        ]
      },
      "id": "node/1437365125"
    },
    {
      "type": "Feature",
      "properties": {
        "@id": "node/1447172299",
        "amenity": "school"
      },
      "geometry": {
        "type": "Point",
        "coordinates": [
          78.4842629,
          17.3942194
        ]
      },
      "id": "node/1447172299"
    },
    {
      "type": "Feature",
      "properties": {
        "@id": "way/1452398453",
        "addr:city": "Hyderabad",
        "addr:housenumber": "3-12-92/555",
        "addr:postcode": "500068",
        "addr:street": "Rock Town Colony",
        "amenity": "school",
        "education": "school",
        "email": "info@gdgoenkahyderabad.com",
        "grades": "0-12",
        "mobile": "+917995001770",
        "name": "GD Goenka School",
        "opening_hours": "Mo-Fr 08:00-17:00",
        "school:board": "CBSE",
        "website": "https://gdgoenkahyd.com",
        "@geometry": "center"
      },
      "geometry": {
        "type": "Point",
        "coordinates": [
          78.56376,
          17.3610481
        ]
      },
      "id": "way/1452398453"
    },
    {
      "type": "Feature",
      "properties": {
        "@id": "way/1454106434",
        "amenity": "school",
        "education": "school",
        "@geometry": "center"
      },
      "geometry": {
        "type": "Point",
        "coordinates": [
          78.4512452,
          17.4951528
        ]
      },
      "id": "way/1454106434"
    },
    {
      "type": "Feature",
      "properties": {
        "@id": "way/1456244366",
        "amenity": "school",
        "education": "school",
        "name": "Blue Blocks",
        "@geometry": "center"
      },
      "geometry": {
        "type": "Point",
        "coordinates": [
          78.2859121,
          17.4346602
        ]
      },
      "id": "way/1456244366"
    },
    {
      "type": "Feature",
      "properties": {
        "@id": "node/1553576940",
        "amenity": "school",
        "name": "St. Joseph's Girls High School"
      },
      "geometry": {
        "type": "Point",
        "coordinates": [
          78.4773556,
          17.396378
        ]
      },
      "id": "node/1553576940"
    },
    {
      "type": "Feature",
      "properties": {
        "@id": "node/1693979525",
        "amenity": "school",
        "name": "St. Peter High School"
      },
      "geometry": {
        "type": "Point",
        "coordinates": [
          78.4880547,
          17.4095337
        ]
      },
      "id": "node/1693979525"
    },
    {
      "type": "Feature",
      "properties": {
        "@id": "node/1693981322",
        "amenity": "school",
        "name": "Rockwoods High School"
      },
      "geometry": {
        "type": "Point",
        "coordinates": [
          78.4871622,
          17.409656
        ]
      },
      "id": "node/1693981322"
    },
    {
      "type": "Feature",
      "properties": {
        "@id": "node/1693981323",
        "amenity": "school",
        "name": "Rockwoods High School"
      },
      "geometry": {
        "type": "Point",
        "coordinates": [
          78.4849523,
          17.4100043
        ]
      },
      "id": "node/1693981323"
    },
    {
      "type": "Feature",
      "properties": {
        "@id": "node/1830862113",
        "amenity": "school",
        "name": "Lotus Lap School"
      },
      "geometry": {
        "type": "Point",
        "coordinates": [
          78.5687059,
          17.3328694
        ]
      },
      "id": "node/1830862113"
    },
    {
      "type": "Feature",
      "properties": {
        "@id": "node/1842299885",
        "addr:city": "hyderabad",
        "addr:housenumber": "303, Rd Number 31, Vivekananda Nagar, Kukatpally,",
        "addr:postcode": "500072",
        "addr:street": "Vivekananda Nagar Road",
        "amenity": "school",
        "check_date": "2024-03-16",
        "name": "DAV Public School",
        "website": "https://davkukatpally.org/"
      },
      "geometry": {
        "type": "Point",
        "coordinates": [
          78.4105957,
          17.4949726
        ]
      },
      "id": "node/1842299885"
    },
    {
      "type": "Feature",
      "properties": {
        "@id": "node/1891052141",
        "amenity": "school",
        "name": "Kendriya Vidyalaya, DRDO, Kanchanbagh"
      },
      "geometry": {
        "type": "Point",
        "coordinates": [
          78.5019168,
          17.3395118
        ]
      },
      "id": "node/1891052141"
    },
    {
      "type": "Feature",
      "properties": {
        "@id": "node/1985561843",
        "amenity": "school",
        "name": "Kendirya Vidyalaya"
      },
      "geometry": {
        "type": "Point",
        "coordinates": [
          78.3549913,
          17.4393096
        ]
      },
      "id": "node/1985561843"
    },
    {
      "type": "Feature",
      "properties": {
        "@id": "node/2062757344",
        "amenity": "school",
        "name": "Siddhartha Residential School"
      },
      "geometry": {
        "type": "Point",
        "coordinates": [
          78.437955,
          17.4293121
        ]
      },
      "id": "node/2062757344"
    },
    {
      "type": "Feature",
      "properties": {
        "@id": "node/2066804022",
        "addr:city": "Hyderabad",
        "addr:postcode": "500038",
        "addr:street": "Sanathnagar",
        "amenity": "school",
        "name": "Hindu Public School"
      },
      "geometry": {
        "type": "Point",
        "coordinates": [
          78.4410265,
          17.4531263
        ]
      },
      "id": "node/2066804022"
    },
    {
      "type": "Feature",
      "properties": {
        "@id": "node/2090725114",
        "addr:postcode": "500084",
        "amenity": "school",
        "name": "Chirec Public School"
      },
      "geometry": {
        "type": "Point",
        "coordinates": [
          78.3517334,
          17.4624493
        ]
      },
      "id": "node/2090725114"
    },
    {
      "type": "Feature",
      "properties": {
        "@id": "node/2177959720",
        "addr:city": "hyderabad",
        "addr:street": "Yousufguda Main Road",
        "amenity": "school",
        "name": "government school"
      },
      "geometry": {
        "type": "Point",
        "coordinates": [
          78.4282993,
          17.4362507
        ]
      },
      "id": "node/2177959720"
    },
    {
      "type": "Feature",
      "properties": {
        "@id": "node/2208158646",
        "amenity": "school",
        "name": "Dharmavant High School",
        "name:te": "ధర్మవంత్ హై స్కూల్"
      },
      "geometry": {
        "type": "Point",
        "coordinates": [
          78.4819749,
          17.3618384
        ]
      },
      "id": "node/2208158646"
    },
    {
      "type": "Feature",
      "properties": {
        "@id": "node/2653175510",
        "addr:city": "Secundarabad",
        "addr:housenumber": "24",
        "addr:postcode": "500062",
        "addr:street": "Arul Colony, E C I L",
        "amenity": "school",
        "name": "St. Theresa High School",
        "phone": "+91 40 2712 4329"
      },
      "geometry": {
        "type": "Point",
        "coordinates": [
          78.5594102,
          17.4807281
        ]
      },
      "id": "node/2653175510"
    },
    {
      "type": "Feature",
      "properties": {
        "@id": "node/2702443456",
        "amenity": "school",
        "name": "narayana school,iit"
      },
      "geometry": {
        "type": "Point",
        "coordinates": [
          78.4898943,
          17.4086181
        ]
      },
      "id": "node/2702443456"
    },
    {
      "type": "Feature",
      "properties": {
        "@id": "node/2710749446",
        "amenity": "school",
        "name": "siddhartha High School"
      },
      "geometry": {
        "type": "Point",
        "coordinates": [
          78.5694074,
          17.3304618
        ]
      },
      "id": "node/2710749446"
    },
    {
      "type": "Feature",
      "properties": {
        "@id": "node/2710750541",
        "amenity": "school",
        "name": "Loyola Montessori House"
      },
      "geometry": {
        "type": "Point",
        "coordinates": [
          78.5693859,
          17.3303492
        ]
      },
      "id": "node/2710750541"
    },
    {
      "type": "Feature",
      "properties": {
        "@id": "node/2712626758",
        "amenity": "school",
        "name": "eurokids ashok nagar"
      },
      "geometry": {
        "type": "Point",
        "coordinates": [
          78.4892653,
          17.4089994
        ]
      },
      "id": "node/2712626758"
    },
    {
      "type": "Feature",
      "properties": {
        "@id": "node/2712702154",
        "amenity": "school",
        "name": "little gems play school/sri sai ram tutorial"
      },
      "geometry": {
        "type": "Point",
        "coordinates": [
          78.4946359,
          17.4135294
        ]
      },
      "id": "node/2712702154"
    },
    {
      "type": "Feature",
      "properties": {
        "@id": "node/2921475370",
        "amenity": "school",
        "name": "Rv model hight school"
      },
      "geometry": {
        "type": "Point",
        "coordinates": [
          78.4412727,
          17.535571
        ]
      },
      "id": "node/2921475370"
    },
    {
      "type": "Feature",
      "properties": {
        "@id": "node/3532689330",
        "amenity": "school",
        "name": "z.p.g.h.s. ground"
      },
      "geometry": {
        "type": "Point",
        "coordinates": [
          78.2639747,
          17.5287955
        ]
      },
      "id": "node/3532689330"
    },
    {
      "type": "Feature",
      "properties": {
        "@id": "node/3535107688",
        "amenity": "school",
        "education": "school",
        "name": "Nanakramguda Govt primary school"
      },
      "geometry": {
        "type": "Point",
        "coordinates": [
          78.3525084,
          17.4195743
        ]
      },
      "id": "node/3535107688"
    },
    {
      "type": "Feature",
      "properties": {
        "@id": "node/4208628506",
        "amenity": "school",
        "name": "GRIET"
      },
      "geometry": {
        "type": "Point",
        "coordinates": [
          78.362891,
          17.5197682
        ]
      },
      "id": "node/4208628506"
    },
    {
      "type": "Feature",
      "properties": {
        "@id": "node/4208652689",
        "amenity": "school",
        "name": "Sri Chaitanya Junior College"
      },
      "geometry": {
        "type": "Point",
        "coordinates": [
          78.411861,
          17.4199188
        ]
      },
      "id": "node/4208652689"
    },
    {
      "type": "Feature",
      "properties": {
        "@id": "node/4265592189",
        "addr:housenumber": "4th Floor",
        "addr:street": "Nagarjuna Nagar",
        "amenity": "school",
        "name": "Siddhartha Degree College"
      },
      "geometry": {
        "type": "Point",
        "coordinates": [
          78.4452586,
          17.4319663
        ]
      },
      "id": "node/4265592189"
    },
    {
      "type": "Feature",
      "properties": {
        "@id": "node/4377099191",
        "addr:street": "big bazar lane, ameerpet",
        "amenity": "school",
        "name": "cognizant collage of commerce",
        "name:hi": "cognizant collage of commerce"
      },
      "geometry": {
        "type": "Point",
        "coordinates": [
          78.450199,
          17.4315389
        ]
      },
      "id": "node/4377099191"
    },
    {
      "type": "Feature",
      "properties": {
        "@id": "node/4407845290",
        "addr:housenumber": "1-8-270",
        "addr:postcode": "500053",
        "amenity": "school",
        "email": "info@nobleschool.net.in",
        "name": "baghlingampally",
        "name:en": "baghlingampally",
        "operator": "school principal",
        "phone": "9133409023",
        "website": "http://nobleschool.net.in"
      },
      "geometry": {
        "type": "Point",
        "coordinates": [
          78.4985239,
          17.4020587
        ]
      },
      "id": "node/4407845290"
    },
    {
      "type": "Feature",
      "properties": {
        "@id": "node/4416373791",
        "amenity": "school",
        "name": "St Anthony high school",
        "name:en": "St Anthony high school"
      },
      "geometry": {
        "type": "Point",
        "coordinates": [
          78.4886592,
          17.4031097
        ]
      },
      "id": "node/4416373791"
    },
    {
      "type": "Feature",
      "properties": {
        "@id": "node/4416373794",
        "amenity": "school",
        "name": "Sri chaitanya high school",
        "name:en": "Sri chaitanya high school"
      },
      "geometry": {
        "type": "Point",
        "coordinates": [
          78.4890028,
          17.4014253
        ]
      },
      "id": "node/4416373794"
    },
    {
      "type": "Feature",
      "properties": {
        "@id": "node/4416393290",
        "amenity": "school",
        "name": "Howard school",
        "name:en": "Howard school"
      },
      "geometry": {
        "type": "Point",
        "coordinates": [
          78.4871071,
          17.4018367
        ]
      },
      "id": "node/4416393290"
    },
    {
      "type": "Feature",
      "properties": {
        "@id": "node/4418622009",
        "amenity": "school",
        "name": "Avanthi degree&pg college",
        "name:en": "Avanthi degree&pg college"
      },
      "geometry": {
        "type": "Point",
        "coordinates": [
          78.4905945,
          17.4003618
        ]
      },
      "id": "node/4418622009"
    },
    {
      "type": "Feature",
      "properties": {
        "@id": "node/4419078503",
        "amenity": "school",
        "name": "Smiles indian school",
        "name:en": "Smiles indian school",
        "name:te": "స్మైల్స్ ఇండియన్ స్కూల్"
      },
      "geometry": {
        "type": "Point",
        "coordinates": [
          78.4861487,
          17.4017724
        ]
      },
      "id": "node/4419078503"
    },
    {
      "type": "Feature",
      "properties": {
        "@id": "node/4431245790",
        "amenity": "school",
        "name": "St Anthony high school",
        "name:en": "St Anthony high school"
      },
      "geometry": {
        "type": "Point",
        "coordinates": [
          78.4885635,
          17.4019162
        ]
      },
      "id": "node/4431245790"
    },
    {
      "type": "Feature",
      "properties": {
        "@id": "node/4431245791",
        "amenity": "school",
        "name": "St Anthony high school",
        "name:en": "St Anthony high school"
      },
      "geometry": {
        "type": "Point",
        "coordinates": [
          78.4885756,
          17.4031177
        ]
      },
      "id": "node/4431245791"
    },
    {
      "type": "Feature",
      "properties": {
        "@id": "node/4431247889",
        "amenity": "school",
        "name": "People's High school",
        "name:en": "People's High school"
      },
      "geometry": {
        "type": "Point",
        "coordinates": [
          78.4888685,
          17.4040476
        ]
      },
      "id": "node/4431247889"
    },
    {
      "type": "Feature",
      "properties": {
        "@id": "node/4431897994",
        "amenity": "school",
        "name": "St Paul degree and pg college, St Joseph Jr college",
        "name:en": "St Paul degree and pg college, St Joseph Jr college"
      },
      "geometry": {
        "type": "Point",
        "coordinates": [
          78.4871893,
          17.4026174
        ]
      },
      "id": "node/4431897994"
    },
    {
      "type": "Feature",
      "properties": {
        "@id": "node/4431984890",
        "amenity": "school",
        "name": "St Anthony high school",
        "name:en": "St Anthony high school"
      },
      "geometry": {
        "type": "Point",
        "coordinates": [
          78.4885458,
          17.4030771
        ]
      },
      "id": "node/4431984890"
    },
    {
      "type": "Feature",
      "properties": {
        "@id": "node/4432355392",
        "amenity": "school",
        "name": "Divyanjali High School.",
        "name:en": "Divyanjali High School."
      },
      "geometry": {
        "type": "Point",
        "coordinates": [
          78.5156444,
          17.3967553
        ]
      },
      "id": "node/4432355392"
    },
    {
      "type": "Feature",
      "properties": {
        "@id": "node/4472320689",
        "addr:street": "Hussain Shah Wali Dargah",
        "amenity": "school",
        "name": "Safrani Memorial High School",
        "name:en": "Safrani Memorial High School",
        "name:hi": "Safrani Memorial High School"
      },
      "geometry": {
        "type": "Point",
        "coordinates": [
          78.3937958,
          17.4104845
        ]
      },
      "id": "node/4472320689"
    },
    {
      "type": "Feature",
      "properties": {
        "@id": "node/4496471892",
        "amenity": "school",
        "name": "Zee School"
      },
      "geometry": {
        "type": "Point",
        "coordinates": [
          78.6034148,
          17.3223319
        ]
      },
      "id": "node/4496471892"
    },
    {
      "type": "Feature",
      "properties": {
        "@id": "node/4539335628",
        "amenity": "school",
        "name": "ST Anns School"
      },
      "geometry": {
        "type": "Point",
        "coordinates": [
          78.4540839,
          17.3978823
        ]
      },
      "id": "node/4539335628"
    },
    {
      "type": "Feature",
      "properties": {
        "@id": "node/4674771293",
        "amenity": "school",
        "name": "Pavithra International School",
        "name:en": "Pavithra International School"
      },
      "geometry": {
        "type": "Point",
        "coordinates": [
          78.3177739,
          17.4790753
        ]
      },
      "id": "node/4674771293"
    },
    {
      "type": "Feature",
      "properties": {
        "@id": "node/4674823494",
        "amenity": "school",
        "name": "Triveni Talent Schools",
        "name:en": "Triveni Talent Schools"
      },
      "geometry": {
        "type": "Point",
        "coordinates": [
          78.3142119,
          17.4895943
        ]
      },
      "id": "node/4674823494"
    },
    {
      "type": "Feature",
      "properties": {
        "@id": "node/4706061489",
        "addr:housenumber": "71-72",
        "addr:postcode": "500033",
        "addr:street": "Rd Number 36, Kakatiya Hills, Kavuri Hills Phase 1, Kavuri Hills, Jubilee Hills",
        "amenity": "school",
        "email": "communications.oish@orchids.edu.in",
        "name": "Orchard",
        "name:en": "Orchids The International School Jubilee Hills (CBSE)",
        "opening_hours": "Mo-Su 09:00-18:30",
        "operator": "Orchids International School",
        "phone": "9513731352",
        "website": "https://www.orchidsinternationalschool.com/hyderabad-branches/jubilee-hills/"
      },
      "geometry": {
        "type": "Point",
        "coordinates": [
          78.3984172,
          17.4419194
        ]
      },
      "id": "node/4706061489"
    },
    {
      "type": "Feature",
      "properties": {
        "@id": "node/4739312650",
        "addr:city": "hyderabad",
        "addr:housenumber": "Asmangadh palace",
        "addr:postcode": "500036",
        "amenity": "school",
        "name": "St joseph's public school",
        "operator": "School",
        "website": "http://sjpsmalakpet.com/"
      },
      "geometry": {
        "type": "Point",
        "coordinates": [
          78.5156883,
          17.3680742
        ]
      },
      "id": "node/4739312650"
    },
    {
      "type": "Feature",
      "properties": {
        "@id": "node/4747299322",
        "addr:street": "KPHB 6th Phase Road",
        "amenity": "school",
        "check_date": "2024-03-16",
        "name": "Vignan Prabha High School",
        "name:en": "Vignan Prabha High School"
      },
      "geometry": {
        "type": "Point",
        "coordinates": [
          78.3886658,
          17.4891585
        ]
      },
      "id": "node/4747299322"
    },
    {
      "type": "Feature",
      "properties": {
        "@id": "node/4750918330",
        "amenity": "school",
        "name": "Mythri High School",
        "name:en": "Mythri High School",
        "phone": "04065500122"
      },
      "geometry": {
        "type": "Point",
        "coordinates": [
          78.3199625,
          17.4870703
        ]
      },
      "id": "node/4750918330"
    },
    {
      "type": "Feature",
      "properties": {
        "@id": "node/4769502021",
        "amenity": "school",
        "name": "BNR Brilliant High School"
      },
      "geometry": {
        "type": "Point",
        "coordinates": [
          78.4081844,
          17.4146274
        ]
      },
      "id": "node/4769502021"
    },
    {
      "type": "Feature",
      "properties": {
        "@id": "node/4796530721",
        "amenity": "school",
        "name": "Sri Vidya vardhini high school",
        "name:en": "Sri Vidya vardhini high school"
      },
      "geometry": {
        "type": "Point",
        "coordinates": [
          78.5045484,
          17.3593826
        ]
      },
      "id": "node/4796530721"
    },
    {
      "type": "Feature",
      "properties": {
        "@id": "node/4972953421",
        "amenity": "school",
        "name": "Kare school",
        "name:en": "Kare school"
      },
      "geometry": {
        "type": "Point",
        "coordinates": [
          78.5020934,
          17.3621596
        ]
      },
      "id": "node/4972953421"
    },
    {
      "type": "Feature",
      "properties": {
        "@id": "node/5118590622",
        "amenity": "school",
        "name": "Anjuman High School"
      },
      "geometry": {
        "type": "Point",
        "coordinates": [
          78.4947636,
          17.4172897
        ]
      },
      "id": "node/5118590622"
    },
    {
      "type": "Feature",
      "properties": {
        "@id": "node/5118590623",
        "amenity": "school",
        "name": "Anjuman Girls High School (Urdu Medium)"
      },
      "geometry": {
        "type": "Point",
        "coordinates": [
          78.4946918,
          17.4169063
        ]
      },
      "id": "node/5118590623"
    },
    {
      "type": "Feature",
      "properties": {
        "@id": "node/5289033245",
        "amenity": "school",
        "name": "St. Mary's High School"
      },
      "geometry": {
        "type": "Point",
        "coordinates": [
          78.5031436,
          17.4389161
        ]
      },
      "id": "node/5289033245"
    },
    {
      "type": "Feature",
      "properties": {
        "@id": "node/5389639230",
        "amenity": "school",
        "name": "St Joseph high school (kindergarten block)"
      },
      "geometry": {
        "type": "Point",
        "coordinates": [
          78.4514384,
          17.3940612
        ]
      },
      "id": "node/5389639230"
    },
    {
      "type": "Feature",
      "properties": {
        "@id": "node/5464848598",
        "amenity": "school",
        "name": "Indus Universal School"
      },
      "geometry": {
        "type": "Point",
        "coordinates": [
          78.5550126,
          17.5067372
        ]
      },
      "id": "node/5464848598"
    },
    {
      "type": "Feature",
      "properties": {
        "@id": "node/5465091377",
        "addr:postcode": "500087",
        "amenity": "school",
        "name": "St.Pauls Model School"
      },
      "geometry": {
        "type": "Point",
        "coordinates": [
          78.5464957,
          17.4998062
        ]
      },
      "id": "node/5465091377"
    },
    {
      "type": "Feature",
      "properties": {
        "@id": "node/5532343399",
        "addr:street": "patancheru",
        "amenity": "school",
        "name": "Shishu vihar High School",
        "opening_hours": "Mo-Sa 09:00-17:00"
      },
      "geometry": {
        "type": "Point",
        "coordinates": [
          78.2668438,
          17.5279933
        ]
      },
      "id": "node/5532343399"
    },
    {
      "type": "Feature",
      "properties": {
        "@id": "node/5537132616",
        "amenity": "school",
        "name": "Sharada School",
        "operator": "government"
      },
      "geometry": {
        "type": "Point",
        "coordinates": [
          78.3917014,
          17.4416821
        ]
      },
      "id": "node/5537132616"
    },
    {
      "type": "Feature",
      "properties": {
        "@id": "node/5563162635",
        "amenity": "school",
        "name": "Ravindra bharati school"
      },
      "geometry": {
        "type": "Point",
        "coordinates": [
          78.3839858,
          17.4985377
        ]
      },
      "id": "node/5563162635"
    },
    {
      "type": "Feature",
      "properties": {
        "@id": "node/5565535476",
        "amenity": "school",
        "name": "Sri chaitanya school",
        "name:en": "Sri Chaitanya School Mehdipatnam"
      },
      "geometry": {
        "type": "Point",
        "coordinates": [
          78.4382545,
          17.3944606
        ]
      },
      "id": "node/5565535476"
    },
    {
      "type": "Feature",
      "properties": {
        "@id": "node/5596353860",
        "amenity": "school",
        "name": "marvadi high school",
        "name:te": "మార్వాడి హై స్కూల్"
      },
      "geometry": {
        "type": "Point",
        "coordinates": [
          78.4856916,
          17.4387618
        ]
      },
      "id": "node/5596353860"
    },
    {
      "type": "Feature",
      "properties": {
        "@id": "node/5625674125",
        "amenity": "school",
        "name": "Tiny tots school"
      },
      "geometry": {
        "type": "Point",
        "coordinates": [
          78.4373826,
          17.3918238
        ]
      },
      "id": "node/5625674125"
    },
    {
      "type": "Feature",
      "properties": {
        "@id": "node/5826309133",
        "addr:city": "Hyderabad, Telangana.",
        "addr:postcode": "500070",
        "addr:street": "huda sai nagar",
        "amenity": "school",
        "name": "siddhartha model high school"
      },
      "geometry": {
        "type": "Point",
        "coordinates": [
          78.5791879,
          17.3311282
        ]
      },
      "id": "node/5826309133"
    },
    {
      "type": "Feature",
      "properties": {
        "@id": "node/5969811186",
        "addr:postcode": "500082",
        "addr:street": "Somajiguda Road - Panjagutta Main Road",
        "amenity": "school",
        "name": "zikra high"
      },
      "geometry": {
        "type": "Point",
        "coordinates": [
          78.4566424,
          17.4279469
        ]
      },
      "id": "node/5969811186"
    },
    {
      "type": "Feature",
      "properties": {
        "@id": "node/6208287186",
        "amenity": "school",
        "name": "Viveka Vardhani School"
      },
      "geometry": {
        "type": "Point",
        "coordinates": [
          78.4793975,
          17.3834054
        ]
      },
      "id": "node/6208287186"
    },
    {
      "type": "Feature",
      "properties": {
        "@id": "node/6222430886",
        "amenity": "school",
        "name": "Madarath Internation School"
      },
      "geometry": {
        "type": "Point",
        "coordinates": [
          78.4538397,
          17.3961077
        ]
      },
      "id": "node/6222430886"
    },
    {
      "type": "Feature",
      "properties": {
        "@id": "node/6222447485",
        "amenity": "school",
        "name": "Goutham Model School"
      },
      "geometry": {
        "type": "Point",
        "coordinates": [
          78.4660613,
          17.3984025
        ]
      },
      "id": "node/6222447485"
    },
    {
      "type": "Feature",
      "properties": {
        "@id": "node/6248330050",
        "addr:city": "Haythnagar",
        "addr:postcode": "501505",
        "amenity": "school",
        "name": "City Model High School"
      },
      "geometry": {
        "type": "Point",
        "coordinates": [
          78.6087266,
          17.3306272
        ]
      },
      "id": "node/6248330050"
    },
    {
      "type": "Feature",
      "properties": {
        "@id": "node/6308250717",
        "amenity": "school"
      },
      "geometry": {
        "type": "Point",
        "coordinates": [
          78.6135963,
          17.3219367
        ]
      },
      "id": "node/6308250717"
    },